,id,infoid,name,city,wifi,seat,quiet,tasty,cheap,music,url,address,latitude,longitude,limited_time,socket,standing_desk,mrt,open_time,info_id,place_id,formatted_address,business_status,location_lat,location_lng,viewport_ne_lat,viewport_ne_lng,viewport_sw_lat,viewport_sw_lng,compound_code,global_code,rating,user_ratings_total,types,cluster
0,1,2757ea6f-ec5c-4bf8-82e6-4f2afc10d66f,Knock Knock Coffee,hsinchu,5,5,4,4,3,4,https://instagram.com/knockknockcoffeebar?utm_medium=copy_link,300新竹市東區南大路375號,24.79661700,120.96867200,maybe,maybe,yes,,,2,ChIJd4p3WfdZkWsRnQdy5fZrhM8,"375 Turbot St, Spring Hill QLD 4000澳洲",OPERATIONAL,-27.4622287,153.0301867,-27.46073557010727,153.0316670798927,-27.46343522989272,153.0289674201073,G2QJ+43 斯普林希爾 澳洲昆士蘭州,5R4MG2QJ+43,4.7,22,"[""cafe"", ""food"", ""point_of_interest"", ""establishment""]",1
1,2,c5f492bc-e6b9-4c55-89f3-ef84a5ca818c,微生咖啡Float Dept.「沒有訂位服務」,hsinchu,5,3,3,4,4,5,https://www.facebook.com/Floatdept/,30043新竹市民權路111巷23號,24.80733110,120.97451600,no,maybe,no,,,3,ChIJk7BAC9E1aDQRcKhHolfreyo,300台灣新竹市東區民權路111巷23號,OPERATIONAL,24.8073916,120.9744697,24.80872612989272,120.9758318298927,24.80602647010728,120.9731321701073,RX4F+WR 東區 新竹市,7QP2RX4F+WR,4.5,831,"[""cafe"", ""food"", ""point_of_interest"", ""establishment""]",1
2,9,eab8deda-842c-43c6-b60a-8a25b8117303,Louisa Coffee 路易．莎咖啡(新竹武陵門市),hsinchu,4,5,3,2,5,3,,300 新竹市北區武陵路173-3號,24.82106830,120.96818990,no,maybe,no,,,10,ChIJo9k3pcs1aDQRYNVP64ej0Ik,300台灣新竹市北區武陵路173-3號,OPERATIONAL,24.8211326,120.9683629,24.82245132989272,120.9697443798927,24.81975167010728,120.9670447201073,RXC9+F8 北區 新竹市,7QP2RXC9+F8,3.7,398,"[""cafe"", ""food"", ""point_of_interest"", ""establishment""]",3
3,10,61674645-ed9a-4e4b-900d-1dc30a5a9252,三島sum:dao,hsinchu,5,4,4,4,4,4.5,https://instagram.com/sum_dao?utm_medium=copy_link,302新竹縣竹北市科大一路185號,99.99999999,24.82052160,maybe,maybe,no,,,11,ChIJU9w2Bw43aDQRMgYZIsQpauk,302台灣新竹縣竹北市科大一路185號,OPERATIONAL,24.820561,121.011746,24.82183572989272,121.0130634798927,24.81913607010728,121.0103638201073,R2C6+6M 竹北市 新竹縣,7QP3R2C6+6M,4.4,234,"[""cafe"", ""food"", ""point_of_interest"", ""establishment""]",1
4,11,e9b22e6d-2688-4af3-8430-f761da556381,11鹿 x 餡寶王,hsinchu,3.5,3,3,3,3,3,https://www.facebook.com/11deer/,新竹縣竹北市嘉豐十一路二段52號,24.80611310,121.03400640,,,,,,12,ChIJM3nDkQw3aDQRe4ZPqM_2RAY,302台灣新竹縣竹北市嘉豐十一路二段52號,OPERATIONAL,24.8061131,121.0340064,24.80741852989272,121.0354328798928,24.80471887010728,121.0327332201073,R24M+CJ 竹北市 新竹縣,7QP3R24M+CJ,3.5,371,"[""meal_takeaway"", ""restaurant"", ""food"", ""point_of_interest"", ""establishment""]",3
5,12,31cda686-3d0f-46e1-b272-1c139558a468,abrazamoslavida cafe歲月靜好咖啡館,hsinchu,0,0,0,0,0,0,,302新竹縣竹北市嘉興路239號,24.81788710,121.02863390,,,,,,13,ChIJ-2ky1RI3aDQRreRRvp9q2Zk,302台灣新竹縣竹北市嘉興路239號,OPERATIONAL,24.8178384,121.0282584,24.81915462989272,121.0296403798928,24.81645497010728,121.0269407201073,R29H+48 竹北市 新竹縣,7QP3R29H+48,4.6,134,"[""cafe"", ""food"", ""point_of_interest"", ""establishment""]",1
6,13,b42d6b1b-c3fa-4f4c-a37f-41c140069ad9,Hollatte馥拿鐵 自烘咖啡 竹東店,hsinchu,5,4,4,5,5,5,https://m.facebook.com/hollatte4/?locale2=zh_TW,310新竹縣竹東鎮中興路二段240號,24.76186620,121.06142330,no,yes,yes,,例假日另行公告於粉絲專頁,14,ChIJta6vkuE3aDQRK0k0SOmzH1g,310台灣新竹縣竹東鎮中興路二段240號,OPERATIONAL,24.7618738,121.0614457,24.76321087989272,121.0627460798927,24.76051122010728,121.0600464201073,Q366+PH 竹東鎮 新竹縣,7QP3Q366+PH,4.7,275,"[""cafe"", ""food"", ""point_of_interest"", ""establishment""]",1
7,14,3b5340f4-ea6a-4373-b0f2-6939e7813820,ca va 小日和,hsinchu,4,5,5,4,4,4,https://m.facebook.com/cava0811/,300新竹市北區江山街17巷之4號,24.80478830,120.96443610,no,maybe,no,,,15,ChIJyys_AsE1aDQRKoHx5Ce44P4,300台灣新竹市北區江山街17巷之4號,OPERATIONAL,24.8048879,120.9641849,24.80626572989272,120.9655091298927,24.80356607010728,120.9628094701073,RX37+XM 北區 新竹市,7QP2RX37+XM,4.4,104,"[""cafe"", ""point_of_interest"", ""food"", ""establishment""]",1
8,15,efc9d9ec-0c9b-4b80-88e9-ab534dd2fc0b,Plunge Cafe 墣玉咖啡,hsinchu,4,3,3,3,3,2,https://www.facebook.com/plungecafe/,新竹縣竹北市復興二路203號,24.80994320,121.03750840,,,,,,16,ChIJnWFO6wA3aDQReZ2c6yXKDZo,302台灣新竹縣竹北市復興二路203號,CLOSED_TEMPORARILY,24.8100845,121.0373256,24.81134932989272,121.0386397798927,24.80864967010728,121.0359401201073,R26P+2W 竹北市 新竹縣,7QP3R26P+2W,4.0,77,"[""cafe"", ""point_of_interest"", ""food"", ""establishment""]",3
9,16,887c24aa-e433-4f24-9d8d-ce89927370b9,參拾穗精品咖啡,hsinchu,0,0,0,0,0,0,,300新竹市東區東南街142巷10號,24.79716530,120.97382770,,,,,,17,ChIJReNlNPA1aDQRKfzkCc71toA,300台灣新竹市東區民族路127巷3號,OPERATIONAL,24.8085674,120.9775268,24.80996072989272,120.9789476798927,24.80726107010728,120.9762480201073,RX5H+C2 東區 新竹市,7QP2RX5H+C2,5.0,37,"[""food"", ""point_of_interest"", ""store"", ""establishment""]",1
10,17,2814cba8-fc3c-4e77-8297-409fb790bfde,飛行樹屋咖啡/B_loved Treehouse Bistro,hsinchu,3,5,2.5,3,2.5,4,https://www.facebook.com/arttreecafebar,新竹市東區東大路一段37號,24.80317300,120.97560560,,,,,,18,ChIJP9oYfxM2aDQRt6wpWu7Juj8,300台灣新竹市東區光復路二段18巷17號,OPERATIONAL,24.7922544,121.0045147,24.79359712989272,121.0059009798927,24.79089747010728,121.0032013201073,Q2R3+WR 東區 新竹市,7QP3Q2R3+WR,4.5,536,"[""cafe"", ""food"", ""point_of_interest"", ""establishment""]",1
11,18,52fe23f1-993c-4964-ba0b-72ca7c9ce429,Hollatte馥拿鐵 自烘咖啡 竹北店,hsinchu,5,5,5,5,5,5,https://m.facebook.com/hollatte5,30264新竹縣竹北市勝利三街150號,24.82258670,121.02861340,no,yes,yes,,例假日另行公告於粉絲專頁,19,ChIJO_pZjoo3aDQRs1yTvYiq0TI,30264台灣新竹縣竹北市勝利三街150號,OPERATIONAL,24.8225397,121.028594,24.82395412989272,121.0299698798927,24.82125447010728,121.0272702201073,R2FH+2C 竹北市 新竹縣,7QP3R2FH+2C,4.7,234,"[""cafe"", ""point_of_interest"", ""store"", ""food"", ""establishment""]",1
12,19,c266e207-fff8-450c-9666-178503d0143c,佈拉諾咖啡館,hsinchu,5,5,5,5,4,4,,新竹市東區三民路40號,24.80762710,120.97400190,no,maybe,,,,20,ChIJoaIXm8Q1aDQRKSQLkFHtOZI,300台灣新竹市東區三民路40號,OPERATIONAL,24.8076505,120.9740897,24.80905047989272,120.9754024798928,24.80635082010728,120.9727028201073,RX5F+3J 東區 新竹市,7QP2RX5F+3J,4.7,94,"[""cafe"", ""food"", ""point_of_interest"", ""establishment""]",1
13,20,22dfc0f8-4e79-4fad-9eb6-b2c72fe2aa4c,樸式珈琲 pure coffee,hsinchu,0,5,5,3,4,4,https://instagram.com/pure_coffee22?utm_medium=copy_link,30044新竹市東區體育街62號,24.80247380,120.98104040,no,maybe,no,,,21,ChIJWXK6Reg1aDQRtNe6wblrLks,30044台灣新竹市東區體育街62號,OPERATIONAL,24.8024738,120.9810404,24.80378342989273,120.9823749298927,24.80108377010728,120.9796752701073,RX2J+XC 東區 新竹市,7QP2RX2J+XC,4.8,25,"[""point_of_interest"", ""store"", ""food"", ""establishment""]",1
14,21,4f44f366-28f8-42bc-95ca-605f71352676,井井咖啡廳,hsinchu,4,4,3,4,3.5,3,https://www.facebook.com/%E4%BA%95%E4%BA%95-294605067379718/,新竹市新源街136號,24.80214800,120.99308600,,,,,,22,ChIJP6kZBnQ2aDQR9SVY40LruLU,300台灣新竹市東區建功一路170號,OPERATIONAL,24.8016904,120.9966641,24.80295582989272,120.9979646298927,24.80025617010728,120.9952649701073,RX2W+MM 東區 新竹市,7QP2RX2W+MM,4.3,538,"[""cafe"", ""restaurant"", ""food"", ""point_of_interest"", ""establishment""]",3
15,22,5bc65ab4-781f-4c7d-bbe7-98757e19446b,預言咖啡Prophecy 食器x雜貨x甜點,hsinchu,4,4,4,4,3,3,https://www.facebook.com/prophecy219/,新竹市東區東南街219號,24.79582440,120.97565490,,,,,,23,ChIJ-7CzU-81aDQRpwho9SozOX8,300台灣新竹市東區東南街219號,CLOSED_PERMANENTLY,24.7958306,120.975597,24.79716627989272,120.9769238798927,24.79446662010728,120.9742242201072,QXWG+87 東區 新竹市,7QP2QXWG+87,4.2,23,"[""restaurant"", ""food"", ""point_of_interest"", ""establishment""]",3
16,23,f2d34dcd-4980-446e-bb28-ebefae466121,La Kaffa六角咖啡,hsinchu,1,5,1,2,4,2,https://www.facebook.com/lakaffa.tw/,新竹縣竹北市自強五路239號1F,24.81239640,121.02043960,maybe,maybe,no,,,24,ChIJi-984Pk2aDQRg0lxhlT5I3U,302台灣新竹縣竹北市自強五路239號,OPERATIONAL,24.8123744,121.0204845,24.81376777989272,121.0217394298927,24.81106812010728,121.0190397701073,R26C+W5 竹北市 新竹縣,7QP3R26C+W5,4.0,611,"[""restaurant"", ""food"", ""point_of_interest"", ""establishment""]",3
17,24,86dad326-f9fe-462a-9584-b209e670074a,COFFEE OWNER,hsinchu,5,5,4,5,4,5,https://www.facebook.com/CoffeeOwner109/,新竹縣竹北市福興東路二段109號1樓,24.81766150,121.02556040,no,yes,yes,,,25,ChIJFTlFx_42aDQRqXOL0ti3-7E,302台灣新竹縣竹北市福興東路二段109號,OPERATIONAL,24.8146616,121.0287032,24.81594497989272,121.0299827298928,24.81324532010727,121.0272830701073,R27H+VF 竹北市 新竹縣,7QP3R27H+VF,4.5,340,"[""cafe"", ""store"", ""food"", ""point_of_interest"", ""establishment""]",0
18,25,93738233-ab2f-48e2-a0ce-2c0d3a245e64,豆居咖啡,hsinchu,0,4,4,5,4,4,,新竹市新莊街141號,24.78743700,121.01705300,,,,,,26,ChIJRz97RTk2aDQRDxTcEWPt1WQ,300台灣新竹市東區新莊街141號,OPERATIONAL,24.7874898,121.017184,24.78881892989272,121.0185690298927,24.78611927010728,121.0158693701073,Q2P8+XV 東區 新竹市,7QP3Q2P8+XV,4.5,203,"[""cafe"", ""food"", ""point_of_interest"", ""establishment""]",0
19,26,61b254e6-13cb-4143-a957-d708865bca8b,CHOCCY Metal 敲敲金工 環球板橋2樓,hsinchu,5,5,5,5,5,5,https://www.facebook.com/choccymetal/,新竹市大同路140號,24.80633610,120.96766600,,yes,no,,,27,ChIJeQ5iEuipQjQRdggZ-15FcXw,220台灣新北市板橋區縣民大道二段7號2樓,OPERATIONAL,25.0144361,121.4638619,25.01552187989272,121.4653984298927,25.01282222010727,121.4626987701073,2F77+QG 板橋區 新北市,7QQ32F77+QG,5.0,3781,"[""store"", ""point_of_interest"", ""establishment""]",2
20,27,5808979d-8e8d-43d8-bc87-72a2708d8ce0,鐵道87咖啡,hsinchu,4,5,5,5,5,4,https://www.facebook.com/railway87cafe/,新竹市北區鐵道路2段87號,24.81685500,120.97852110,no,maybe,no,,,28,ChIJaby4KdI1aDQR36si3Y-q0Po,30050台灣新竹市北區鐵道路二段87號,OPERATIONAL,24.8168114,120.9784791,24.81818977989272,120.9798588298927,24.81549012010728,120.9771591701073,RX8H+P9 北區 新竹市,7QP2RX8H+P9,4.7,91,"[""food"", ""point_of_interest"", ""establishment""]",0
21,28,a923a74c-89a9-4ee8-bb49-f51f8da9759d,FOX.CONE coffee & bakes,hsinchu,4,4,4,4,5,4,https://www.facebook.com/foxdotcone,新竹市東區南門街12號,24.80035090,120.96787570,no,,,,,29,ChIJI2VDEgo1aDQR4a7L4rIRjSw,300台灣新竹市東區南門街12號,OPERATIONAL,24.8003509,120.9678757,24.80169322989272,120.9692113798927,24.79899357010728,120.9665117201072,RX29+45 東區 新竹市,7QP2RX29+45,4.5,492,"[""cafe"", ""store"", ""food"", ""point_of_interest"", ""establishment""]",0
22,29,71ebabe1-0725-40f1-ab94-262c5f3b1b5d,FUFUCatCafe,hsinchu,0,0,0,0,0,0,https://www.facebook.com/fucafes/,新竹縣竹北市十興三街75號,24.82396900,121.03421200,maybe,maybe,yes,,,30,ChIJp4XAHX6rQjQR9sjrYtvV564,"號 3 樓, No. 53武昌街二段萬華區台北市台灣 108",OPERATIONAL,25.0447196,121.5072979,25.04603122989272,121.5086376298927,25.04333157010728,121.5059379701073,2GV4+VW 萬華區 台北市,7QQ32GV4+VW,4.7,605,"[""cafe"", ""food"", ""point_of_interest"", ""establishment""]",0
23,30,a1a39ed4-ff36-4790-a0f2-18a1709211db,MANO MANO_新竹竹科店,hsinchu,4,4,4,4,4,5,,300新竹市東區長春街77號,24.78657510,121.01503110,,,,,,31,ChIJTzpmKC03aDQRmt2gIcs4Gps,300台灣新竹市東區長春街77號,OPERATIONAL,24.7865707,121.0150283,24.78790032989272,121.0164153798927,24.78520067010728,121.0137157201073,Q2P8+J2 東區 新竹市,7QP3Q2P8+J2,4.5,526,"[""bakery"", ""cafe"", ""food"", ""point_of_interest"", ""store"", ""establishment""]",0
24,31,d4b36ea7-9e9a-4545-b7d1-843b9a748d62,貓嶼 Cat Island,hsinchu,4,5,4,3,4,4,https://www.facebook.com/%E8%B2%93%E5%B6%BC-Cat-Island-106064568639381/,300新竹市北區北新街39巷34號,24.80175190,120.95764540,maybe,maybe,no,,,32,ChIJe6ZimIM1aDQRLn7U9psCoZM,300台灣新竹市北區北新街39巷34號,OPERATIONAL,24.8017763,120.9576663,24.80311602989272,120.9590279798927,24.80041637010728,120.9563283201073,RX25+P3 北區 新竹市,7QP2RX25+P3,4.7,299,"[""store"", ""food"", ""point_of_interest"", ""establishment""]",0
25,32,51b26e23-e1ca-4439-8461-2a71d3517f43,辛志平校長故居(前棟)/TAIVII餐酒館(後棟),hsinchu,5,5,5,4,4,5,https://www.facebook.com/AK.museum/,新竹市東區東門街32號,24.80437710,120.97392600,,,no,,,33,ChIJgQJ9bqM1aDQRJcvuSbkJMcg,300台灣新竹市東區東門街32號,OPERATIONAL,24.8043375,120.9739152,24.80558572989272,120.9752640298927,24.80288607010728,120.9725643701072,RX3F+PH 東區 新竹市,7QP2RX3F+PH,4.3,1850,"[""restaurant"", ""cafe"", ""food"", ""point_of_interest"", ""establishment""]",0
26,33,b0a104d8-985c-4b14-a3e6-5c8eb68c6979,冪2 La Miette Pizza&Kitchen,hsinchu,4,4,3,3,3,5,https://www.facebook.com/lamiettecafe/,新竹市經國路二段352號,24.80798310,120.95786900,no,yes,yes,,,34,ChIJzZTA2Wk1aDQRw5VfOfCgD9Y,300台灣新竹市東區仁愛街20號,OPERATIONAL,24.8068866,120.971735,24.80821352989272,120.9730446798927,24.80551387010728,120.9703450201073,RX4C+QP 東區 新竹市,7QP2RX4C+QP,4.6,75,"[""restaurant"", ""food"", ""point_of_interest"", ""establishment""]",0
27,34,bdc0c8db-5633-45a6-bfbf-322f5c40e00c,Hidden off,hsinchu,3,4.5,4,3.5,3.5,4.5,https://m.facebook.com/Hidden-Off-1843364589084833/,300新竹市北區西門街135號,24.80107400,120.96308990,yes,no,no,,其他公休日會在粉絲頁公告,35,ChIJ6TUqVWc1aDQR0pr9HKQuOlo,300台灣新竹市北區西門街135號,OPERATIONAL,24.8010944,120.9630769,24.80250637989272,120.9643692798928,24.79980672010728,120.9616696201073,RX27+F6 北區 新竹市,7QP2RX27+F6,4.5,481,"[""cafe"", ""food"", ""point_of_interest"", ""establishment""]",0
28,35,62997e0d-a462-45cf-8335-dd65e1d2bf32,Fika Fika Cafe,hsinchu,4.5,5,4.5,4,3,4,http://www.fikarast.com.tw,新竹市北大路166巷1弄5號1F,24.80985150,120.96705730,no,maybe,yes,,原地址已經變成另外一間咖啡店.......臉書上的地址也找不到,36,ChIJEfselmGpQjQR7yaK-dqDBJ4,104台灣台北市中山區伊通街33號,OPERATIONAL,25.0504585,121.535246,25.05186972989272,121.5365133798927,25.04917007010728,121.5338137201073,3G2P+54 中山區 台北市,7QQ33G2P+54,4.4,3814,"[""cafe"", ""food"", ""point_of_interest"", ""establishment""]",2
29,36,c958b817-87dd-42dc-8b61-f1356fdc924a,或者書店/或者蔬食 閱讀｜蔬食｜咖啡 *2F蔬食餐廳每週二公休,hsinchu,4,5,5,5,5,5,https://www.facebook.com/MuMoonReader,新竹市竹北市成功十街105號,24.81520500,121.02325300,no,no,no,,週二到週日,37,ChIJMYH8tfg2aDQRbj_ZS1x19M0,302台灣新竹縣竹北市文興路一段123號,OPERATIONAL,24.8121678,121.0275149,24.81350192989272,121.0288931798927,24.81080227010728,121.0261935201073,R26H+V2 竹北市 新竹縣,7QP3R26H+V2,4.6,1304,"[""book_store"", ""cafe"", ""store"", ""restaurant"", ""food"", ""point_of_interest"", ""establishment""]",0
30,37,1f29c528-7df4-49e9-8be8-580bdc7f0445,甘木赤水咖啡館,hsinchu,5,5,5,5,4,4,,新竹市東區食品路177巷43號,24.79586240,120.97664780,no,maybe,yes,,,38,ChIJOdLAcxFLaDQRHA3Mlab9ey8,300台灣新竹市東區食品路177巷43號,CLOSED_PERMANENTLY,24.7958688,120.9766366,24.79718377989272,120.9779342298927,24.79448412010727,120.9752345701073,QXWG+9M 東區 新竹市,7QP2QXWG+9M,4.8,95,"[""cafe"", ""food"", ""point_of_interest"", ""establishment""]",0
31,38,149b58e9-a9cf-49b2-955b-ff674fe1e456,握咖啡 Oh!Cafe - 新竹金山店,hsinchu,4,5,4.5,5,4.5,4,https://www.facebook.com/ohcafe.Hsinchu/,新竹市東區金山八街48號,24.77781610,121.02032500,,,,,,39,ChIJgWGNoCU2aDQRm8Qb4tYu6Mo,300台灣新竹市東區金山八街48號,OPERATIONAL,24.7778161,121.0203251,24.77916202989272,121.0217578798927,24.77646237010728,121.0190582201073,Q2HC+44 東區 新竹市,7QP3Q2HC+44,4.5,249,"[""cafe"", ""food"", ""point_of_interest"", ""establishment""]",0
32,39,fdc4df17-c9fa-4f1d-8040-588e092cd3a7,過日子咖啡,hsinchu,4,4,5,3,3,5,https://www.facebook.com/livelifecafe/,新竹市北區水田街91巷9號,24.81583000,120.96744200,,,,,,40,ChIJKe_Vf0seaDQRmeTe9mzHmXE,330台灣桃園市桃園區大業路二段27號,OPERATIONAL,25.0167144,121.3111041,25.01807402989272,121.3125097298928,25.01537437010728,121.3098100701073,2886+MC 桃園區 桃園市,7QQ32886+MC,4.4,296,"[""restaurant"", ""food"", ""point_of_interest"", ""establishment""]",0
33,40,810a0a7a-a0fc-4889-886a-5640050cbec5,二十四分之一早午餐 手作麵包,hsinchu,5,2,3,4,3,4,,302新竹縣竹北市文興路51號,24.81753000,121.01572630,,,,,,41,ChIJx8HTV-s3aDQRk6D25gljeSg,302台灣新竹縣竹北市文興路51號,OPERATIONAL,24.81753,121.0157263,24.81881942989272,121.0170226798927,24.81611977010728,121.0143230201073,R298+27 竹北市 新竹縣,7QP3R298+27,4.4,974,"[""restaurant"", ""point_of_interest"", ""food"", ""establishment""]",0
