[{:id=>39, :infoid=>"2ec53c31-4806-4025-b911-bc309f2dfaa1", :name=>"喵思咖啡", :city=>"changhua", :wifi=>"2", :seat=>"5", :quiet=>"5", :tasty=>"5", :cheap=>"5", :music=>"5", :url=>"https://www.facebook.com/muse.cofe", :address=>"彰化縣福興鄉沿海路五段18號", :latitude=>"24.04444090", :longitude=>"120.42765990", :limited_time=>"no", :socket=>"maybe", :standing_desk=>"no", :mrt=>"", :open_time=>"", :info_id=>39, :place_id=>"ChIJ88mw5FZPaTQR7yU-jx2DsMY", :formatted_address=>"506台灣彰化縣福興鄉沿海路五段18號", :business_status=>"OPERATIONAL", :location_lat=>"24.044267", :location_lng=>"120.4276155", :viewport_ne_lat=>"24.04562307989272", :viewport_ne_lng=>"120.4289522798927", :viewport_sw_lat=>"24.04292342010728", :viewport_sw_lng=>"120.4262526201072", :compound_code=>"2CVH+P2 福興鄉 彰化縣", :global_code=>"7QP22CVH+P2", :rating=>4.7, :user_ratings_total=>158, :types=>"[\"cafe\", \"food\", \"point_of_interest\", \"establishment\"]"}, {:id=>40, :infoid=>"99bdb9a3-acfb-41b0-b5b1-24d18a2ce7b8", :name=>"53咖啡", :city=>"changhua", :wifi=>"0", :seat=>"4", :quiet=>"5", :tasty=>"5", :cheap=>"5", :music=>"3", :url=>"https://www.facebook.com/53coffeelove", :address=>"彰化市民權路53巷2號", :latitude=>"24.07537180", :longitude=>"120.54209120", :limited_time=>"", :socket=>"", :standing_desk=>"", :mrt=>"", :open_time=>"", :info_id=>40, :place_id=>"ChIJZ06izY84aTQRoVRScJz7qwY", :formatted_address=>"500台灣彰化縣彰化市民權路53巷2號", :business_status=>"OPERATIONAL", :location_lat=>"24.0753303", :location_lng=>"120.542198", :viewport_ne_lat=>"24.07668267989272", :viewport_ne_lng=>"120.5435784298927", :viewport_sw_lat=>"24.07398302010728", :viewport_sw_lng=>"120.5408787701073", :compound_code=>"3GGR+4V 彰化市 彰化縣", :global_code=>"7QP23GGR+4V", :rating=>4.9, :user_ratings_total=>83, :types=>"[\"cafe\", \"point_of_interest\", \"food\", \"store\", \"establishment\"]"}, {:id=>41, :infoid=>"924f80e8-9ce2-4743-b431-58ba35f2e16b", :name=>"Dreasist Coffee Roasters® 郡‧瑟斯特咖啡烘焙者", :city=>"changhua", :wifi=>"5", :seat=>"5", :quiet=>"5", :tasty=>"5", :cheap=>"5", :music=>"5", :url=>"https://www.facebook.com/dreasistcoffee/", :address=>"彰化縣員林市惠明街168巷72號", :latitude=>"23.95233070", :longitude=>"120.56859960", :limited_time=>"no", :socket=>"maybe", :standing_desk=>"yes", :mrt=>"", :open_time=>"週一、週二、週五、週六、週日", :info_id=>41, :place_id=>"ChIJjUVmqWA2aTQRSdMq9qbdNhU", :formatted_address=>"510台灣彰化縣員林市惠明街168巷72號", :business_status=>"OPERATIONAL", :location_lat=>"23.952331", :location_lng=>"120.5686", :viewport_ne_lat=>"23.95367327989272", :viewport_ne_lng=>"120.5699160298927", :viewport_sw_lat=>"23.95097362010728", :viewport_sw_lng=>"120.5672163701072", :compound_code=>"XH29+WC 員林市 彰化縣", :global_code=>"7QM2XH29+WC", :rating=>4.8, :user_ratings_total=>32, :types=>"[\"food\", \"point_of_interest\", \"establishment\"]"}, {:id=>42, :infoid=>"3501cb44-3268-4802-b4ac-804403d875ed", :name=>"Beginning Cafe人之初‧手作咖啡", :city=>"changhua", :wifi=>"5", :seat=>"4", :quiet=>"3", :tasty=>"5", :cheap=>"5", :music=>"5", :url=>"https://www.facebook.com/beginning150530", :address=>"彰化縣彰化市彰化市中山路二段72號之 1 號", :latitude=>"24.06763700", :longitude=>"120.53984000", :limited_time=>"no", :socket=>"no", :standing_desk=>"yes", :mrt=>"", :open_time=>"", :info_id=>42, :place_id=>"ChIJ712BW5A4aTQRhK6r1dXR5M4", :formatted_address=>"500台灣彰化縣彰化市中山路二段72號之 1 號", :business_status=>"CLOSED_PERMANENTLY", :location_lat=>"24.0677186", :location_lng=>"120.5397611", :viewport_ne_lat=>"24.06913047989272", :viewport_ne_lng=>"120.5410441298928", :viewport_sw_lat=>"24.06643082010728", :viewport_sw_lng=>"120.5383444701073", :compound_code=>"3G9Q+3W 彰化市 彰化縣", :global_code=>"7QP23G9Q+3W", :rating=>4.7, :user_ratings_total=>123, :types=>"[\"cafe\", \"food\", \"point_of_interest\", \"store\", \"establishment\"]"}, {:id=>43, :infoid=>"c99622aa-bbc8-4153-9c63-6034c62ba34b", :name=>"摩露啡Moluficafe", :city=>"changhua", :wifi=>"5", :seat=>"5", :quiet=>"5", :tasty=>"4", :cheap=>"5", :music=>"4", :url=>"https://www.facebook.com/moluficafe/", :address=>"510彰化縣員林市成功東路317巷22號", :latitude=>"23.95809550", :longitude=>"120.58290150", :limited_time=>"no", :socket=>"maybe", :standing_desk=>"yes", :mrt=>"", :open_time=>"11:00~21:00", :info_id=>43, :place_id=>"ChIJkZXmaP82aTQRXZsK4xRndF4", :formatted_address=>"510台灣彰化縣員林市成功東路317巷22號", :business_status=>"CLOSED_TEMPORARILY", :location_lat=>"23.9580955", :location_lng=>"120.5829015", :viewport_ne_lat=>"23.95952627989272", :viewport_ne_lng=>"120.5842568298927", :viewport_sw_lat=>"23.95682662010728", :viewport_sw_lng=>"120.5815571701072", :compound_code=>"XH5M+65 員林市 彰化縣", :global_code=>"7QM2XH5M+65", :rating=>4.6, :user_ratings_total=>83, :types=>"[\"cafe\", \"food\", \"point_of_interest\", \"establishment\"]"}, {:id=>44, :infoid=>"ffcf66fd-7044-4b51-9c67-406488ffd976", :name=>"Bruce Coffee自家焙煎咖啡", :city=>"changhua", :wifi=>"0", :seat=>"5", :quiet=>"4", :tasty=>"5", :cheap=>"5", :music=>"4", :url=>"", :address=>"彰化縣伸港鄉中山東路119號", :latitude=>"24.14761380", :longitude=>"120.48789670", :limited_time=>"no", :socket=>"maybe", :standing_desk=>"yes", :mrt=>"", :open_time=>"", :info_id=>44, :place_id=>"ChIJt450mOZAaTQRIdhswo5nakc", :formatted_address=>"509台灣彰化縣伸港鄉中山東路119號", :business_status=>"OPERATIONAL", :location_lat=>"24.1475324", :location_lng=>"120.4879133", :viewport_ne_lat=>"24.14886797989272", :viewport_ne_lng=>"120.4892661298927", :viewport_sw_lat=>"24.14616832010728", :viewport_sw_lng=>"120.4865664701073", :compound_code=>"4FXQ+25 伸港鄉 彰化縣", :global_code=>"7QP24FXQ+25", :rating=>4.8, :user_ratings_total=>133, :types=>"[\"cafe\", \"food\", \"point_of_interest\", \"establishment\"]"}, {:id=>45, :infoid=>"18e98010-98fb-4302-ade2-5c60a03d4946", :name=>"MamiCoffee媽咪咖啡館", :city=>"changhua", :wifi=>"0", :seat=>"5", :quiet=>"4", :tasty=>"5", :cheap=>"4", :music=>"4", :url=>"https://www.facebook.com/micafeshop/", :address=>"彰化縣和美鎮彰草路二段442號-3號", :latitude=>"24.08140790", :longitude=>"120.50506600", :limited_time=>"maybe", :socket=>"maybe", :standing_desk=>"yes", :mrt=>"", :open_time=>"", :info_id=>45, :place_id=>"ChIJn1Ybd4iuQjQRVdKwTlJxVLQ", :formatted_address=>"111台灣台北市士林區天母西路73號", :business_status=>"OPERATIONAL", :location_lat=>"25.1186205", :location_lng=>"121.5253492", :viewport_ne_lat=>"25.11989162989272", :viewport_ne_lng=>"121.5266957298928", :viewport_sw_lat=>"25.11719197010728", :viewport_sw_lng=>"121.5239960701073", :compound_code=>"4G9G+C4 士林區 台北市", :global_code=>"7QQ34G9G+C4", :rating=>4.1, :user_ratings_total=>112, :types=>"[\"cafe\", \"food\", \"point_of_interest\", \"establishment\"]"}, {:id=>46, :infoid=>"a62ea40b-7f5a-443f-9c06-719dbc1ea5b9", :name=>"All In Coffee （安靜空間，同組只接待2位入座）", :city=>"changhua", :wifi=>"0", :seat=>"0", :quiet=>"0", :tasty=>"0", :cheap=>"0", :music=>"0", :url=>"", :address=>"510彰化縣員林市和平東街60-1號", :latitude=>"23.96260300", :longitude=>"120.57559600", :limited_time=>"maybe", :socket=>"maybe", :standing_desk=>"yes", :mrt=>"", :open_time=>"", :info_id=>46, :place_id=>"ChIJ6w75-_Y2aTQRaLXRVH8OSBk", :formatted_address=>"510台灣彰化縣員林市和平東街60-1號", :business_status=>"OPERATIONAL", :location_lat=>"23.962603", :location_lng=>"120.575596", :viewport_ne_lat=>"23.96378577989272", :viewport_ne_lng=>"120.5769817298927", :viewport_sw_lat=>"23.96108612010728", :viewport_sw_lng=>"120.5742820701073", :compound_code=>"XH7G+26 員林市 彰化縣", :global_code=>"7QM2XH7G+26", :rating=>4.4, :user_ratings_total=>542, :types=>"[\"cafe\", \"food\", \"point_of_interest\", \"store\", \"establishment\"]"}, {:id=>47, :infoid=>"4cf30e10-b28e-43d6-b68f-64d8c0b7156a", :name=>"白色方塊咖啡工作室", :city=>"changhua", :wifi=>"4", :seat=>"5", :quiet=>"3.5", :tasty=>"3.5", :cheap=>"3.5", :music=>"4.5", :url=>"https://www.facebook.com/whitecube23/", :address=>"彰化縣彰化市公園路一段50號", :latitude=>"24.07682500", :longitude=>"120.54583100", :limited_time=>"no", :socket=>"maybe", :standing_desk=>"no", :mrt=>"", :open_time=>"", :info_id=>47, :place_id=>"ChIJmc4jI5I4aTQRjDizYakngD8", :formatted_address=>"500台灣彰化縣彰化市公園路一段50號", :business_status=>"OPERATIONAL", :location_lat=>"24.0768433", :location_lng=>"120.545833", :viewport_ne_lat=>"24.07822797989272", :viewport_ne_lng=>"120.5471836298927", :viewport_sw_lat=>"24.07552832010728", :viewport_sw_lng=>"120.5444839701073", :compound_code=>"3GGW+P8 彰化市 彰化縣", :global_code=>"7QP23GGW+P8", :rating=>4.6, :user_ratings_total=>270, :types=>"[\"cafe\", \"food\", \"point_of_interest\", \"establishment\"]"}, {:id=>48, :infoid=>"c89a99c5-95ae-4909-93e5-59bebaf876d1", :name=>"YOLO's Cafe", :city=>"changhua", :wifi=>"5", :seat=>"4.5", :quiet=>"4.5", :tasty=>"3.5", :cheap=>"3", :music=>"5", :url=>"https://www.facebook.com/yolocafe.tw/", :address=>"彰化縣彰化市中正路一段430號", :latitude=>"24.08280000", :longitude=>"120.54268500", :limited_time=>"", :socket=>"", :standing_desk=>"", :mrt=>"", :open_time=>"", :info_id=>48, :place_id=>"ChIJZ7tjiMyrQjQRwpoTp3_Fmec", :formatted_address=>"106台灣台北市大安區通安街45號", :business_status=>"OPERATIONAL", :location_lat=>"25.0314505", :location_lng=>"121.5533464", :viewport_ne_lat=>"25.03280092989272", :viewport_ne_lng=>"121.5546772798927", :viewport_sw_lat=>"25.03010127010727", :viewport_sw_lng=>"121.5519776201073", :compound_code=>"2HJ3+H8 大安區 台北市", :global_code=>"7QQ32HJ3+H8", :rating=>4.5, :user_ratings_total=>377, :types=>"[\"cafe\", \"restaurant\", \"food\", \"store\", \"point_of_interest\", \"establishment\"]"}, {:id=>49, :infoid=>"aa029a72-e7e9-4c65-9d80-e3bf2e488170", :name=>"COCO鬆餅屋", :city=>"changhua", :wifi=>"4", :seat=>"1", :quiet=>"1", :tasty=>"4", :cheap=>"3", :music=>"3", :url=>"https://www.facebook.com/cocoffee579/?fref=ts", :address=>"彰化縣員林鎮中正路581號", :latitude=>"23.96121200", :longitude=>"120.57134000", :limited_time=>"", :socket=>"", :standing_desk=>"", :mrt=>"", :open_time=>"10:30 - 21:30", :info_id=>49, :place_id=>"ChIJN8xHSlg2aTQRBtxatsnzcpw", :formatted_address=>"510台灣彰化縣員林市中正路581號", :business_status=>"OPERATIONAL", :location_lat=>"23.9612054", :location_lng=>"120.5713114", :viewport_ne_lat=>"23.96257232989272", :viewport_ne_lng=>"120.5727422798927", :viewport_sw_lat=>"23.95987267010728", :viewport_sw_lng=>"120.5700426201073", :compound_code=>"XH6C+FG 員林市 彰化縣", :global_code=>"7QM2XH6C+FG", :rating=>4.3, :user_ratings_total=>611, :types=>"[\"cafe\", \"food\", \"point_of_interest\", \"establishment\"]"}, {:id=>59, :infoid=>"553116b1-cc51-40e0-9f40-34269145410e", :name=>"Skinny Cafe 瘦子咖啡", :city=>"changhua", :wifi=>"5", :seat=>"4", :quiet=>"4", :tasty=>"5", :cheap=>"4", :music=>"4", :url=>"www.skinnycafe.tw", :address=>"彰化縣彰化市光復路143巷4號", :latitude=>"24.08029400", :longitude=>"120.53986900", :limited_time=>"maybe", :socket=>"maybe", :standing_desk=>"yes", :mrt=>"", :open_time=>"禮拜三、四公休", :info_id=>59, :place_id=>"ChIJq0gGBJQ4aTQR6huFxtC3wgI", :formatted_address=>"500台灣彰化縣彰化市光復路143巷4號", :business_status=>"OPERATIONAL", :location_lat=>"24.0805304", :location_lng=>"120.5399125", :viewport_ne_lat=>"24.08195307989272", :viewport_ne_lng=>"120.5413090798927", :viewport_sw_lat=>"24.07925342010728", :viewport_sw_lng=>"120.5386094201073", :compound_code=>"3GJQ+6X 彰化市 彰化縣", :global_code=>"7QP23GJQ+6X", :rating=>4.7, :user_ratings_total=>652, :types=>"[\"cafe\", \"restaurant\", \"store\", \"food\", \"point_of_interest\", \"establishment\"]"}, {:id=>60, :infoid=>"8f08a06a-791d-4aaa-a1d8-31526653d6ae", :name=>"加負咖啡", :city=>"changhua", :wifi=>"0", :seat=>"0", :quiet=>"0", :tasty=>"0", :cheap=>"0", :music=>"0", :url=>"", :address=>" 514彰化縣溪湖鎮民生街1號", :latitude=>"23.95813090", :longitude=>"120.48012430", :limited_time=>"maybe", :socket=>"maybe", :standing_desk=>"yes", :mrt=>"", :open_time=>"", :info_id=>60, :place_id=>"ChIJy9ES3XhJaTQR_Q9fmPP0Dnw", :formatted_address=>"514台灣彰化縣溪湖鎮民生街1號", :business_status=>"OPERATIONAL", :location_lat=>"23.9581693", :location_lng=>"120.4800573", :viewport_ne_lat=>"23.95950552989272", :viewport_ne_lng=>"120.4814928298927", :viewport_sw_lat=>"23.95680587010728", :viewport_sw_lng=>"120.4787931701073", :compound_code=>"XF5J+72 溪湖鎮 彰化縣", :global_code=>"7QM2XF5J+72", :rating=>4.9, :user_ratings_total=>37, :types=>"[\"cafe\", \"food\", \"point_of_interest\", \"establishment\"]"}, {:id=>61, :infoid=>"a4d0b220-8790-4593-97fb-06ec21c85465", :name=>"邁思國際股份有限公司(法莫拉/帝蘿肌因系列保養品)", :city=>"changhua", :wifi=>"5", :seat=>"5", :quiet=>"3", :tasty=>"3", :cheap=>"3", :music=>"4", :url=>"", :address=>"500彰化縣彰化市四維路69巷2號", :latitude=>"24.06647160", :longitude=>"120.53586040", :limited_time=>"no", :socket=>"yes", :standing_desk=>"yes", :mrt=>"", :open_time=>"", :info_id=>61, :place_id=>"ChIJkZKpoH84aTQR6KdHXm0lFb4", :formatted_address=>"500台灣彰化縣彰化市中央路184號5號樓之4", :business_status=>"OPERATIONAL", :location_lat=>"24.0656093", :location_lng=>"120.5295431", :viewport_ne_lat=>"24.06691542989272", :viewport_ne_lng=>"120.5308647798928", :viewport_sw_lat=>"24.06421577010727", :viewport_sw_lng=>"120.5281651201073", :compound_code=>"3G8H+6R 彰化市 彰化縣", :global_code=>"7QP23G8H+6R", :rating=>5.0, :user_ratings_total=>1, :types=>"[\"point_of_interest\", \"establishment\"]"}, {:id=>62, :infoid=>"6f9882d3-d68c-4478-9294-1114953c9e01", :name=>"樂居咖啡", :city=>"changhua", :wifi=>"4", :seat=>"3", :quiet=>"4", :tasty=>"3", :cheap=>"4", :music=>"5", :url=>"https://www.facebook.com/lovestaycafe", :address=>"彰化縣員林市萬年路四段", :latitude=>"23.96673480", :longitude=>"120.60153650", :limited_time=>"maybe", :socket=>"no", :standing_desk=>"yes", :mrt=>"", :open_time=>"9:00-18:00", :info_id=>62, :place_id=>"ChIJbYgABFc2aTQRfZNqXsq7zjc", :formatted_address=>"510台灣彰化縣員林市中山路二段131巷28號", :business_status=>"CLOSED_PERMANENTLY", :location_lat=>"23.9658591", :location_lng=>"120.5709058", :viewport_ne_lat=>"23.96720827989272", :viewport_ne_lng=>"120.5722483298927", :viewport_sw_lat=>"23.96450862010728", :viewport_sw_lng=>"120.5695486701073", :compound_code=>"XH8C+89 員林市 彰化縣", :global_code=>"7QM2XH8C+89", :rating=>4.4, :user_ratings_total=>160, :types=>"[\"cafe\", \"food\", \"point_of_interest\", \"establishment\"]"}]