[{:id=>1, :infoid=>"1cc7b88c-7010-47cf-ba2e-ac4c6e6293c9", :name=>"AM1café", :city=>"changhua", :wifi=>"0", :seat=>"5", :quiet=>"5", :tasty=>"5", :cheap=>"5", :music=>"4", :url=>"https://www.facebook.com/AM1CafeChanghua/?fref=ts", :address=>"彰化市建寶街1-21號", :latitude=>"24.06946140", :longitude=>"120.54596610", :limited_time=>"no", :socket=>"maybe", :standing_desk=>"yes", :mrt=>"", :open_time=>"8:30 - 18:30", :info_id=>1, :place_id=>"ChIJT3iO8Is4aTQRJwL5HnGQBWM", :formatted_address=>"500台灣彰化縣彰化市建寶街1-21號", :business_status=>"CLOSED_PERMANENTLY", :location_lat=>"24.0694801", :location_lng=>"120.547303", :viewport_ne_lat=>"24.07080762989272", :viewport_ne_lng=>"120.5486074298927", :viewport_sw_lat=>"24.06810797010728", :viewport_sw_lng=>"120.5459077701072", :compound_code=>"3G9W+QW 彰化市 彰化縣", :global_code=>"7QP23G9W+QW", :rating=>4.0, :user_ratings_total=>7, :types=>"[\"cafe\", \"food\", \"point_of_interest\", \"establishment\"]"}, {:id=>2, :infoid=>"f533573a-3a1b-4183-8834-b142bdc29185", :name=>"Stable Fly 穩定飛行模式", :city=>"changhua", :wifi=>"5", :seat=>"5", :quiet=>"4", :tasty=>"5", :cheap=>"4", :music=>"5", :url=>"https://www.facebook.com/StableFly", :address=>"彰化縣彰化市永樂街44巷2號", :latitude=>"24.07624810", :longitude=>"120.54379970", :limited_time=>"maybe", :socket=>"yes", :standing_desk=>"yes", :mrt=>"", :open_time=>"", :info_id=>2, :place_id=>"ChIJwY1h55E4aTQR6fL7rXbrbFU", :formatted_address=>"500台灣彰化縣彰化市永樂街44巷2號", :business_status=>"OPERATIONAL", :location_lat=>"24.0768339", :location_lng=>"120.5430784", :viewport_ne_lat=>"24.07817727989272", :viewport_ne_lng=>"120.5444642798928", :viewport_sw_lat=>"24.07547762010728", :viewport_sw_lng=>"120.5417646201073", :compound_code=>"3GGV+P6 彰化市 彰化縣", :global_code=>"7QP23GGV+P6", :rating=>4.7, :user_ratings_total=>542, :types=>"[\"liquor_store\", \"cafe\", \"store\", \"food\", \"point_of_interest\", \"establishment\"]"}, {:id=>3, :infoid=>"1cc09415-5c6e-48da-ab71-c571877b6e1c", :name=>"秋瀾號 咖啡專賣所", :city=>"changhua", :wifi=>"0", :seat=>"5", :quiet=>"4", :tasty=>"5", :cheap=>"4", :music=>"5", :url=>"", :address=>"彰化縣員林市大同路二段129巷27弄6號", :latitude=>"23.96818440", :longitude=>"120.57685090", :limited_time=>"", :socket=>"", :standing_desk=>"", :mrt=>"", :open_time=>"", :info_id=>3, :place_id=>"ChIJXbHb5v42aTQR-5UdIh51zEo", :formatted_address=>"No. 6號, 大同路二段129巷27弄, 員林市彰化縣台灣 510", :business_status=>"OPERATIONAL", :location_lat=>"23.968275", :location_lng=>"120.5772639", :viewport_ne_lat=>"23.96962557989272", :viewport_ne_lng=>"120.5786133298927", :viewport_sw_lat=>"23.96692592010728", :viewport_sw_lng=>"120.5759136701073", :compound_code=>"XH9G+8W 員林市 彰化縣", :global_code=>"7QM2XH9G+8W", :rating=>4.8, :user_ratings_total=>265, :types=>"[\"cafe\", \"food\", \"point_of_interest\", \"establishment\"]"}, {:id=>4, :infoid=>"4b36a3d1-5a41-4866-be34-fc126bc0aac9", :name=>"La Coma Café &Brunch", :city=>"changhua", :wifi=>"5", :seat=>"5", :quiet=>"5", :tasty=>"5", :cheap=>"5", :music=>"5", :url=>"", :address=>"彰化縣彰化市旭光路72號", :latitude=>"24.07462300", :longitude=>"120.54645600", :limited_time=>"", :socket=>"", :standing_desk=>"", :mrt=>"", :open_time=>"", :info_id=>4, :place_id=>"ChIJaz338o04aTQRuKeX5vYtR2w", :formatted_address=>"500台灣彰化縣彰化市旭光路72號", :business_status=>"OPERATIONAL", :location_lat=>"24.0746217", :location_lng=>"120.5464973", :viewport_ne_lat=>"24.07596937989272", :viewport_ne_lng=>"120.5479166298927", :viewport_sw_lat=>"24.07326972010728", :viewport_sw_lng=>"120.5452169701073", :compound_code=>"3GFW+RH 彰化市 彰化縣", :global_code=>"7QP23GFW+RH", :rating=>4.5, :user_ratings_total=>364, :types=>"[\"restaurant\", \"food\", \"point_of_interest\", \"establishment\"]"}, {:id=>5, :infoid=>"37144277-b52e-4439-a6e0-e7c778a24389", :name=>"一帖咖啡 The One Coffee", :city=>"changhua", :wifi=>"4", :seat=>"5", :quiet=>"4", :tasty=>"5", :cheap=>"4", :music=>"4", :url=>"https://www.facebook.com/theonecoffee2017/", :address=>"彰化縣花壇鄉花南路", :latitude=>"24.02129910", :longitude=>"120.55131230", :limited_time=>"no", :socket=>"maybe", :standing_desk=>"yes", :mrt=>"", :open_time=>"", :info_id=>5, :place_id=>"ChIJX5RZAP45aTQRh6hrl0t0ijE", :formatted_address=>"503台灣彰化縣花壇鄉中橋街528號", :business_status=>"OPERATIONAL", :location_lat=>"24.0221253", :location_lng=>"120.5494507", :viewport_ne_lat=>"24.02346492989273", :viewport_ne_lng=>"120.5507613298927", :viewport_sw_lat=>"24.02076527010728", :viewport_sw_lng=>"120.5480616701073", :compound_code=>"2GCX+VQ 花壇鄉 彰化縣", :global_code=>"7QP22GCX+VQ", :rating=>4.9, :user_ratings_total=>34, :types=>"[\"food\", \"point_of_interest\", \"establishment\"]"}, {:id=>6, :infoid=>"6f9882d3-d68c-4478-9294-1114953c9e01", :name=>"樂居咖啡", :city=>"changhua", :wifi=>"4", :seat=>"3", :quiet=>"4", :tasty=>"3", :cheap=>"4", :music=>"5", :url=>"https://www.facebook.com/lovestaycafe", :address=>"彰化縣員林市萬年路四段", :latitude=>"23.96673480", :longitude=>"120.60153650", :limited_time=>"maybe", :socket=>"no", :standing_desk=>"yes", :mrt=>"", :open_time=>"9:00-18:00", :info_id=>6, :place_id=>"ChIJbYgABFc2aTQRfZNqXsq7zjc", :formatted_address=>"510台灣彰化縣員林市中山路二段131巷28號", :business_status=>"CLOSED_PERMANENTLY", :location_lat=>"23.9658591", :location_lng=>"120.5709058", :viewport_ne_lat=>"23.96720827989272", :viewport_ne_lng=>"120.5722483298927", :viewport_sw_lat=>"23.96450862010728", :viewport_sw_lng=>"120.5695486701073", :compound_code=>"XH8C+89 員林市 彰化縣", :global_code=>"7QM2XH8C+89", :rating=>4.4, :user_ratings_total=>160, :types=>"[\"cafe\", \"point_of_interest\", \"food\", \"establishment\"]"}, {:id=>7, :infoid=>"71ef6e0b-0aa9-405e-b4ee-32dd320b724a", :name=>"卡夫瓦咖啡", :city=>"changhua", :wifi=>"5", :seat=>"5", :quiet=>"5", :tasty=>"5", :cheap=>"5", :music=>"5", :url=>"https://www.facebook.com/KahveCoffeeRoaster/", :address=>"彰化縣鹿港鎮公園三路69巷68號", :latitude=>"24.05590170", :longitude=>"120.43007850", :limited_time=>"no", :socket=>"maybe", :standing_desk=>"yes", :mrt=>"", :open_time=>"不定期公休，公休會及發布於FB及Line @", :info_id=>7, :place_id=>"ChIJr91GnfxFaTQRHGA7gi9YaDs", :formatted_address=>"505台灣彰化縣鹿港鎮公園三路69巷68號", :business_status=>"OPERATIONAL", :location_lat=>"24.0559017", :location_lng=>"120.4300785", :viewport_ne_lat=>"24.05724612989272", :viewport_ne_lng=>"120.4314236298927", :viewport_sw_lat=>"24.05454647010728", :viewport_sw_lng=>"120.4287239701073", :compound_code=>"3C4J+92 鹿港鎮 彰化縣", :global_code=>"7QP23C4J+92", :rating=>4.9, :user_ratings_total=>108, :types=>"[\"cafe\", \"point_of_interest\", \"food\", \"establishment\"]"}, {:id=>8, :infoid=>"edad1d9d-d339-42aa-a7bb-2bd9ef5a02b5", :name=>"加啤咖啡 +B CAFÉ", :city=>"changhua", :wifi=>"5", :seat=>"5", :quiet=>"5", :tasty=>"5", :cheap=>"4", :music=>"5", :url=>"https://www.instagram.com/plusbcafe/", :address=>"彰化市延平路558號1樓", :latitude=>"24.06308540", :longitude=>"120.53800660", :limited_time=>"maybe", :socket=>"maybe", :standing_desk=>"yes", :mrt=>"", :open_time=>"", :info_id=>8, :place_id=>"ChIJgVUs3Xw4aTQRJZ8AaBxTFqo", :formatted_address=>"1樓, No. 558號延平路彰化市彰化縣台灣 500", :business_status=>"OPERATIONAL", :location_lat=>"24.0630614", :location_lng=>"120.5380577", :viewport_ne_lat=>"24.06432702989272", :viewport_ne_lng=>"120.5394091298927", :viewport_sw_lat=>"24.06162737010728", :viewport_sw_lng=>"120.5367094701073", :compound_code=>"3G7Q+66 彰化市 彰化縣", :global_code=>"7QP23G7Q+66", :rating=>4.8, :user_ratings_total=>81, :types=>"[\"cafe\", \"store\", \"food\", \"point_of_interest\", \"establishment\"]"}, {:id=>9, :infoid=>"4f8f50ea-2b72-454f-a9fc-d970dbca3066", :name=>"米德咖啡坊", :city=>"changhua", :wifi=>"5", :seat=>"4", :quiet=>"4", :tasty=>"5", :cheap=>"5", :music=>"2", :url=>"https://www.facebook.com/MEDECAFE888/", :address=>"彰化縣鹿港鎮永安二路105號", :latitude=>"24.06221600", :longitude=>"120.44023160", :limited_time=>"no", :socket=>"no", :standing_desk=>"no", :mrt=>"", :open_time=>"", :info_id=>9, :place_id=>"ChIJAUzk6gtGaTQRLayGPU4Y_rc", :formatted_address=>"505台灣彰化縣鹿港鎮永安二路105號505", :business_status=>"OPERATIONAL", :location_lat=>"24.0622209", :location_lng=>"120.4403268", :viewport_ne_lat=>"24.06357057989273", :viewport_ne_lng=>"120.4416720798927", :viewport_sw_lat=>"24.06087092010728", :viewport_sw_lng=>"120.4389724201073", :compound_code=>"3C6R+V4 鹿港鎮 彰化縣", :global_code=>"7QP23C6R+V4", :rating=>4.6, :user_ratings_total=>18, :types=>"[\"cafe\", \"point_of_interest\", \"food\", \"establishment\"]"}, {:id=>10, :infoid=>"9f31d449-14d6-4044-b0cc-e90f78330b72", :name=>"LOCA Coffee&Wine", :city=>"changhua", :wifi=>"4.5", :seat=>"3.5", :quiet=>"3.5", :tasty=>"5", :cheap=>"5", :music=>"4.5", :url=>"https://m.facebook.com/Loca-Caf%C3%A9-1779070185720438/", :address=>"彰化縣二林鎮南光里南安路454號", :latitude=>"23.89471460", :longitude=>"120.36798200", :limited_time=>"maybe", :socket=>"yes", :standing_desk=>"no", :mrt=>"", :open_time=>"不定時公休", :info_id=>10, :place_id=>"ChIJL-YURwypQjQRlOL4-fbqETo", :formatted_address=>"100台灣台北市中正區羅斯福路二段120號", :business_status=>"OPERATIONAL", :location_lat=>"25.0262292", :location_lng=>"121.5227237", :viewport_ne_lat=>"25.02763017989272", :viewport_ne_lng=>"121.5241546798928", :viewport_sw_lat=>"25.02493052010728", :viewport_sw_lng=>"121.5214550201073", :compound_code=>"2GGF+F3 中正區 台北市", :global_code=>"7QQ32GGF+F3", :rating=>5.0, :user_ratings_total=>2, :types=>"[\"cafe\", \"bar\", \"food\", \"point_of_interest\", \"store\", \"establishment\"]"}, {:id=>11, :infoid=>"d4078620-766a-4c05-8b33-a959d859a926", :name=>"Golden Lumiére Café 金莎時光咖啡館", :city=>"changhua", :wifi=>"0", :seat=>"0", :quiet=>"0", :tasty=>"0", :cheap=>"0", :music=>"0", :url=>"https://www.facebook.com/glcafe/", :address=>"彰化縣和美鎮彰美路五段159號", :latitude=>"24.10814760", :longitude=>"120.50180530", :limited_time=>"", :socket=>"", :standing_desk=>"", :mrt=>"", :open_time=>"", :info_id=>11, :place_id=>"ChIJ2aYnCTdHaTQRcz7uDbQqgTk", :formatted_address=>"508台灣彰化縣和美鎮彰美路五段159號", :business_status=>"OPERATIONAL", :location_lat=>"24.1080744", :location_lng=>"120.5016657", :viewport_ne_lat=>"24.10946777989272", :viewport_ne_lng=>"120.5030795798927", :viewport_sw_lat=>"24.10676812010728", :viewport_sw_lng=>"120.5003799201072", :compound_code=>"4G52+6M 和美鎮 彰化縣", :global_code=>"7QP24G52+6M", :rating=>4.6, :user_ratings_total=>47, :types=>"[\"cafe\", \"food\", \"point_of_interest\", \"establishment\"]"}, {:id=>12, :infoid=>"007d1a99-a204-4300-9301-02f01a16b390", :name=>"右舍咖啡", :city=>"changhua", :wifi=>"5", :seat=>"4", :quiet=>"4", :tasty=>"5", :cheap=>"4", :music=>"5", :url=>"https://www.facebook.com/taiwanvicinocafe/", :address=>"彰化縣員林市萬年路三段67號", :latitude=>"23.95756180", :longitude=>"120.57399800", :limited_time=>"maybe", :socket=>"maybe", :standing_desk=>"no", :mrt=>"", :open_time=>"", :info_id=>12, :place_id=>"ChIJNZSHp1g2aTQRrTTzw-oZres", :formatted_address=>"510台灣彰化縣員林市萬年路三段67號", :business_status=>"OPERATIONAL", :location_lat=>"23.9577396", :location_lng=>"120.5739107", :viewport_ne_lat=>"23.95910297989272", :viewport_ne_lng=>"120.5753011798927", :viewport_sw_lat=>"23.95640332010728", :viewport_sw_lng=>"120.5726015201073", :compound_code=>"XH5F+3H 員林市 彰化縣", :global_code=>"7QM2XH5F+3H", :rating=>4.5, :user_ratings_total=>1915, :types=>"[\"cafe\", \"point_of_interest\", \"store\", \"food\", \"establishment\"]"}, {:id=>13, :infoid=>"c4d04d52-cdda-4c32-8368-157a2e0dbdec", :name=>"淇士葳咖啡Kisweet coffee", :city=>"changhua", :wifi=>"4", :seat=>"5", :quiet=>"4", :tasty=>"5", :cheap=>"5", :music=>"4", :url=>"", :address=>"彰化縣彰化市彰新路一段52號", :latitude=>"24.09014620", :longitude=>"120.53855500", :limited_time=>"", :socket=>"yes", :standing_desk=>"", :mrt=>"", :open_time=>"", :info_id=>13, :place_id=>"ChIJ0yjbJKM4aTQRA8-QXED5lO8", :formatted_address=>"500台灣彰化縣彰化市彰新路一段52號", :business_status=>"OPERATIONAL", :location_lat=>"24.0899077", :location_lng=>"120.5386764", :viewport_ne_lat=>"24.09125617989272", :viewport_ne_lng=>"120.5400184798927", :viewport_sw_lat=>"24.08855652010728", :viewport_sw_lng=>"120.5373188201072", :compound_code=>"3GQQ+XF 彰化市 彰化縣", :global_code=>"7QP23GQQ+XF", :rating=>4.3, :user_ratings_total=>63, :types=>"[\"cafe\", \"food\", \"point_of_interest\", \"establishment\"]"}, {:id=>14, :infoid=>"fd53a7eb-c299-42f7-86f3-7be84a1cc318", :name=>"本心咖啡自家烘焙館", :city=>"changhua", :wifi=>"5", :seat=>"5", :quiet=>"5", :tasty=>"5", :cheap=>"5", :music=>"5", :url=>"https://www.facebook.com/followyourheart.tw/", :address=>"彰化縣員林市靜修路64號1樓", :latitude=>"23.96205190", :longitude=>"120.56717300", :limited_time=>"maybe", :socket=>"no", :standing_desk=>"yes", :mrt=>"", :open_time=>"特殊店休會公佈在粉絲團", :info_id=>14, :place_id=>"ChIJc8YxPFo2aTQR0_EbIka-fDA", :formatted_address=>"510台灣彰化縣員林市靜修路64號", :business_status=>"OPERATIONAL", :location_lat=>"23.962213", :location_lng=>"120.567149", :viewport_ne_lat=>"23.96360307989272", :viewport_ne_lng=>"120.5684978298928", :viewport_sw_lat=>"23.96090342010728", :viewport_sw_lng=>"120.5657981701073", :compound_code=>"XH68+VV 員林市 彰化縣", :global_code=>"7QM2XH68+VV", :rating=>4.8, :user_ratings_total=>50, :types=>"[\"cafe\", \"food\", \"point_of_interest\", \"store\", \"establishment\"]"}, {:id=>15, :infoid=>"7fd03039-61c0-4ab7-b43a-006fba76c2ea", :name=>"DeerHer甜點廚坊", :city=>"changhua", :wifi=>"5", :seat=>"5", :quiet=>"5", :tasty=>"5", :cheap=>"5", :music=>"4", :url=>"https://www.facebook.com/deerherbakery/", :address=>"彰化縣和美鎮線東路二段712號", :latitude=>"24.09152780", :longitude=>"120.51986200", :limited_time=>"maybe", :socket=>"yes", :standing_desk=>"yes", :mrt=>"", :open_time=>"1:00pm~7:00pm", :info_id=>15, :place_id=>"ChIJz3v8fGdHaTQROGanpW8IJUo", :formatted_address=>"508台灣彰化縣和美鎮線東路二段712號", :business_status=>"OPERATIONAL", :location_lat=>"24.0914587", :location_lng=>"120.5199389", :viewport_ne_lat=>"24.09282407989273", :viewport_ne_lng=>"120.5211778298927", :viewport_sw_lat=>"24.09012442010728", :viewport_sw_lng=>"120.5184781701073", :compound_code=>"3GR9+HX 和美鎮 彰化縣", :global_code=>"7QP23GR9+HX", :rating=>4.5, :user_ratings_total=>348, :types=>"[\"bakery\", \"point_of_interest\", \"food\", \"store\", \"establishment\"]"}, {:id=>16, :infoid=>"cf9f4a37-905e-4f28-8d31-f3c619ff7632", :name=>"村上珈琲/咖啡", :city=>"changhua", :wifi=>"3", :seat=>"5", :quiet=>"2", :tasty=>"5", :cheap=>"4", :music=>"3", :url=>"https://www.facebook.com/村上珈琲-彰化金馬路門市-1395031783924352/", :address=>"彰化市建國北路238號", :latitude=>"24.09669000", :longitude=>"120.54926600", :limited_time=>"no", :socket=>"yes", :standing_desk=>"no", :mrt=>"", :open_time=>"", :info_id=>16, :place_id=>"ChIJ9X8Ykrc4aTQRvigA_FYWeV4", :formatted_address=>"500台灣彰化縣彰化市建國北路238號", :business_status=>"CLOSED_PERMANENTLY", :location_lat=>"24.096604", :location_lng=>"120.5492706", :viewport_ne_lat=>"24.09793692989272", :viewport_ne_lng=>"120.5505533798928", :viewport_sw_lat=>"24.09523727010728", :viewport_sw_lng=>"120.5478537201073", :compound_code=>"3GWX+JP 彰化市 彰化縣", :global_code=>"7QP23GWX+JP", :rating=>4.1, :user_ratings_total=>540, :types=>"[\"cafe\", \"food\", \"point_of_interest\", \"store\", \"establishment\"]"}, {:id=>17, :infoid=>"45264ff3-9b00-4b2c-bbfe-011183b3d216", :name=>"Tzemdas Kaffa 手作.獨立思考咖啡", :city=>"changhua", :wifi=>"4.5", :seat=>"4.5", :quiet=>"5", :tasty=>"4.5", :cheap=>"4", :music=>"5", :url=>"https://www.facebook.com/Tzemdaskaffa", :address=>"彰化縣彰化市自強路248號", :latitude=>"24.09036990", :longitude=>"120.54521600", :limited_time=>"no", :socket=>"maybe", :standing_desk=>"no", :mrt=>"", :open_time=>"10:00 - 22:00", :info_id=>17, :place_id=>"ChIJpySFoL44aTQRCPg082aAFEk", :formatted_address=>"500台灣彰化縣彰化市自強路248號", :business_status=>"OPERATIONAL", :location_lat=>"24.0903677", :location_lng=>"120.5452047", :viewport_ne_lat=>"24.09181077989273", :viewport_ne_lng=>"120.5465291798928", :viewport_sw_lat=>"24.08911112010728", :viewport_sw_lng=>"120.5438295201073", :compound_code=>"3GRW+43 彰化市 彰化縣", :global_code=>"7QP23GRW+43", :rating=>4.8, :user_ratings_total=>375, :types=>"[\"cafe\", \"florist\", \"food\", \"store\", \"point_of_interest\", \"establishment\"]"}, {:id=>18, :infoid=>"32ac4b3e-f793-4296-ac8a-0f1617466302", :name=>"Circus Cafe 圓圈咖啡", :city=>"changhua", :wifi=>"5", :seat=>"5", :quiet=>"4", :tasty=>"5", :cheap=>"5", :music=>"5", :url=>"https://www.facebook.com/circusparkcafe/", :address=>"彰化縣員林市員東路二段351巷1號", :latitude=>"23.95828590", :longitude=>"120.58033950", :limited_time=>"no", :socket=>"yes", :standing_desk=>"no", :mrt=>"", :open_time=>"", :info_id=>18, :place_id=>"ChIJH-0IB1o2aTQR7ZF-_775F-s", :formatted_address=>"510台灣彰化縣員林市員東路二段351巷1號", :business_status=>"OPERATIONAL", :location_lat=>"23.9584315", :location_lng=>"120.5803574", :viewport_ne_lat=>"23.95983512989272", :viewport_ne_lng=>"120.5816590298928", :viewport_sw_lat=>"23.95713547010728", :viewport_sw_lng=>"120.5789593701073", :compound_code=>"XH5J+94 員林市 彰化縣", :global_code=>"7QM2XH5J+94", :rating=>4.6, :user_ratings_total=>83, :types=>"[\"bar\", \"restaurant\", \"food\", \"store\", \"point_of_interest\", \"establishment\"]"}, {:id=>19, :infoid=>"924f80e8-9ce2-4743-b431-58ba35f2e16b", :name=>"Dreasist Coffee Roasters® 郡‧瑟斯特咖啡烘焙者", :city=>"changhua", :wifi=>"5", :seat=>"5", :quiet=>"5", :tasty=>"5", :cheap=>"5", :music=>"5", :url=>"https://www.facebook.com/dreasistcoffee/", :address=>"彰化縣員林市惠明街168巷72號", :latitude=>"23.95233070", :longitude=>"120.56859960", :limited_time=>"no", :socket=>"maybe", :standing_desk=>"yes", :mrt=>"", :open_time=>"週一、週二、週五、週六、週日", :info_id=>19, :place_id=>"ChIJjUVmqWA2aTQRSdMq9qbdNhU", :formatted_address=>"510台灣彰化縣員林市惠明街168巷72號", :business_status=>"OPERATIONAL", :location_lat=>"23.952331", :location_lng=>"120.5686", :viewport_ne_lat=>"23.95367327989272", :viewport_ne_lng=>"120.5699160298927", :viewport_sw_lat=>"23.95097362010728", :viewport_sw_lng=>"120.5672163701072", :compound_code=>"XH29+WC 員林市 彰化縣", :global_code=>"7QM2XH29+WC", :rating=>4.8, :user_ratings_total=>32, :types=>"[\"point_of_interest\", \"food\", \"establishment\"]"}, {:id=>20, :infoid=>"8f08a06a-791d-4aaa-a1d8-31526653d6ae", :name=>"加負咖啡", :city=>"changhua", :wifi=>"0", :seat=>"0", :quiet=>"0", :tasty=>"0", :cheap=>"0", :music=>"0", :url=>"", :address=>" 514彰化縣溪湖鎮民生街1號", :latitude=>"23.95813090", :longitude=>"120.48012430", :limited_time=>"maybe", :socket=>"maybe", :standing_desk=>"yes", :mrt=>"", :open_time=>"", :info_id=>20, :place_id=>"ChIJy9ES3XhJaTQR_Q9fmPP0Dnw", :formatted_address=>"514台灣彰化縣溪湖鎮民生街1號", :business_status=>"OPERATIONAL", :location_lat=>"23.9581693", :location_lng=>"120.4800573", :viewport_ne_lat=>"23.95950552989272", :viewport_ne_lng=>"120.4814928298927", :viewport_sw_lat=>"23.95680587010728", :viewport_sw_lng=>"120.4787931701073", :compound_code=>"XF5J+72 溪湖鎮 彰化縣", :global_code=>"7QM2XF5J+72", :rating=>4.9, :user_ratings_total=>37, :types=>"[\"cafe\", \"food\", \"point_of_interest\", \"establishment\"]"}, {:id=>21, :infoid=>"cf4efb0a-7693-4c25-83f6-3b0d1374edcc", :name=>"或者咖啡 OR Coffee", :city=>"changhua", :wifi=>"5", :seat=>"4", :quiet=>"4", :tasty=>"5", :cheap=>"5", :music=>"5", :url=>"", :address=>"彰化縣北斗鎮斗苑路一段379號", :latitude=>"23.87223780", :longitude=>"120.51925050", :limited_time=>"maybe", :socket=>"maybe", :standing_desk=>"yes", :mrt=>"", :open_time=>"", :info_id=>21, :place_id=>"ChIJ7xoBEN41aDQRv_bWRtesppk", :formatted_address=>"300台灣新竹市北區大同路177號", :business_status=>"OPERATIONAL", :location_lat=>"24.8073893", :location_lng=>"120.9665589", :viewport_ne_lat=>"24.80876217989272", :viewport_ne_lng=>"120.9679448298927", :viewport_sw_lat=>"24.80606252010728", :viewport_sw_lng=>"120.9652451701073", :compound_code=>"RX48+XJ 北區 新竹市", :global_code=>"7QP2RX48+XJ", :rating=>4.6, :user_ratings_total=>122, :types=>"[\"cafe\", \"store\", \"food\", \"point_of_interest\", \"establishment\"]"}, {:id=>22, :infoid=>"aa029a72-e7e9-4c65-9d80-e3bf2e488170", :name=>"COCO鬆餅屋", :city=>"changhua", :wifi=>"4", :seat=>"1", :quiet=>"1", :tasty=>"4", :cheap=>"3", :music=>"3", :url=>"https://www.facebook.com/cocoffee579/?fref=ts", :address=>"彰化縣員林鎮中正路581號", :latitude=>"23.96121200", :longitude=>"120.57134000", :limited_time=>"", :socket=>"", :standing_desk=>"", :mrt=>"", :open_time=>"10:30 - 21:30", :info_id=>22, :place_id=>"ChIJN8xHSlg2aTQRBtxatsnzcpw", :formatted_address=>"510台灣彰化縣員林市中正路581號", :business_status=>"OPERATIONAL", :location_lat=>"23.9612054", :location_lng=>"120.5713114", :viewport_ne_lat=>"23.96257232989272", :viewport_ne_lng=>"120.5727422798927", :viewport_sw_lat=>"23.95987267010728", :viewport_sw_lng=>"120.5700426201073", :compound_code=>"XH6C+FG 員林市 彰化縣", :global_code=>"7QM2XH6C+FG", :rating=>4.3, :user_ratings_total=>612, :types=>"[\"cafe\", \"point_of_interest\", \"food\", \"establishment\"]"}, {:id=>23, :infoid=>"5c16f440-cc99-4700-9765-c1902b69f802", :name=>"尋鹿咖啡", :city=>"changhua", :wifi=>"5", :seat=>"4", :quiet=>"4", :tasty=>"5", :cheap=>"4", :music=>"4", :url=>"", :address=>"彰化市永安街476號", :latitude=>"24.09417800", :longitude=>"120.54197370", :limited_time=>"no", :socket=>"maybe", :standing_desk=>"yes", :mrt=>"", :open_time=>"08:00～21:00", :info_id=>23, :place_id=>"ChIJHUOlCLs4aTQRBhlse7ovO28", :formatted_address=>"500台灣彰化縣彰化市永安街476號", :business_status=>"OPERATIONAL", :location_lat=>"24.0941487", :location_lng=>"120.5418878", :viewport_ne_lat=>"24.09548742989272", :viewport_ne_lng=>"120.5432190798928", :viewport_sw_lat=>"24.09278777010728", :viewport_sw_lng=>"120.5405194201073", :compound_code=>"3GVR+MQ 彰化市 彰化縣", :global_code=>"7QP23GVR+MQ", :rating=>4.0, :user_ratings_total=>296, :types=>"[\"meal_takeaway\", \"cafe\", \"store\", \"restaurant\", \"food\", \"point_of_interest\", \"establishment\"]"}, {:id=>24, :infoid=>"62253131-3a5b-4970-b39f-2a3fb92e6edc", :name=>"寶美髮型設計", :city=>"changhua", :wifi=>"5", :seat=>"5", :quiet=>"5", :tasty=>"4", :cheap=>"5", :music=>"5", :url=>"https://www.facebook.com/RubyCafe186/", :address=>"彰化縣花壇鄉中正路186號", :latitude=>"24.02674800", :longitude=>"120.54226400", :limited_time=>"", :socket=>"", :standing_desk=>"", :mrt=>"", :open_time=>"", :info_id=>24, :place_id=>"ChIJK1Jye-RHaDQRz8fpCD6qkpE", :formatted_address=>"310台灣新竹縣竹東鎮長春路三段58號", :business_status=>"OPERATIONAL", :location_lat=>"24.7412287", :location_lng=>"121.0856936", :viewport_ne_lat=>"24.74253832989272", :viewport_ne_lng=>"121.0869845298927", :viewport_sw_lat=>"24.73983867010728", :viewport_sw_lng=>"121.0842848701073", :compound_code=>"P3RP+F7 竹東鎮 新竹縣", :global_code=>"7QP3P3RP+F7", :rating=>4.6, :user_ratings_total=>47, :types=>"[\"hair_care\", \"point_of_interest\", \"establishment\"]"}, {:id=>25, :infoid=>"3052164d-3999-4426-97ea-edcc5f27a597", :name=>"All In Coffee （安靜空間，同組只接待2位入座）", :city=>"changhua", :wifi=>"5", :seat=>"4", :quiet=>"4", :tasty=>"4.5", :cheap=>"4", :music=>"3.5", :url=>"https://www.facebook.com/AllInCoffee.tw/", :address=>"510彰化縣員林市和平東街60-1號", :latitude=>"23.95408090", :longitude=>"120.57798490", :limited_time=>"no", :socket=>"maybe", :standing_desk=>"", :mrt=>"", :open_time=>"", :info_id=>25, :place_id=>"ChIJ6w75-_Y2aTQRaLXRVH8OSBk", :formatted_address=>"510台灣彰化縣員林市和平東街60-1號", :business_status=>"OPERATIONAL", :location_lat=>"23.962603", :location_lng=>"120.575596", :viewport_ne_lat=>"23.96378577989272", :viewport_ne_lng=>"120.5769817298927", :viewport_sw_lat=>"23.96108612010728", :viewport_sw_lng=>"120.5742820701073", :compound_code=>"XH7G+26 員林市 彰化縣", :global_code=>"7QM2XH7G+26", :rating=>4.4, :user_ratings_total=>543, :types=>"[\"cafe\", \"store\", \"food\", \"point_of_interest\", \"establishment\"]"}, {:id=>26, :infoid=>"31fe3e0b-bf61-4264-b283-b0f94ef9e37f", :name=>"花舒哿精品咖啡", :city=>"changhua", :wifi=>"5", :seat=>"5", :quiet=>"4", :tasty=>"5", :cheap=>"5", :music=>"5", :url=>"https://m.facebook.com/forcecafe7863286/", :address=>"彰化縣花壇鄉花壇街186號", :latitude=>"24.02376690", :longitude=>"120.53874400", :limited_time=>"no", :socket=>"maybe", :standing_desk=>"no", :mrt=>"", :open_time=>"週二至週日11:00-18:30", :info_id=>26, :place_id=>"ChIJb2FoqAI4aTQRS8KhM-XfdxA", :formatted_address=>"503台灣彰化縣花壇鄉花壇街186號", :business_status=>"OPERATIONAL", :location_lat=>"24.0233819", :location_lng=>"120.538716", :viewport_ne_lat=>"24.02471602989272", :viewport_ne_lng=>"120.5400204798927", :viewport_sw_lat=>"24.02201637010728", :viewport_sw_lng=>"120.5373208201072", :compound_code=>"2GFQ+9F 花壇鄉 彰化縣", :global_code=>"7QP22GFQ+9F", :rating=>4.6, :user_ratings_total=>59, :types=>"[\"cafe\", \"food\", \"point_of_interest\", \"establishment\"]"}, {:id=>27, :infoid=>"4c9766e2-f0dd-4b18-bd1b-07ceeb3c524f", :name=>"典藏家精品咖啡館", :city=>"changhua", :wifi=>"5", :seat=>"5", :quiet=>"4", :tasty=>"5", :cheap=>"4", :music=>"4", :url=>"https://www.facebook.com/cafeclassicosince2005/", :address=>"彰化縣彰化市民族路129巷54號", :latitude=>"24.06912650", :longitude=>"120.53662560", :limited_time=>"no", :socket=>"maybe", :standing_desk=>"no", :mrt=>"", :open_time=>"", :info_id=>27, :place_id=>"ChIJz_tgqoc4aTQRcAZkXIYWI04", :formatted_address=>"500台灣彰化縣彰化市民族路129巷54號", :business_status=>"OPERATIONAL", :location_lat=>"24.06915", :location_lng=>"120.536613", :viewport_ne_lat=>"24.07048397989272", :viewport_ne_lng=>"120.5379589798927", :viewport_sw_lat=>"24.06778432010728", :viewport_sw_lng=>"120.5352593201073", :compound_code=>"3G9P+MJ 彰化市 彰化縣", :global_code=>"7QP23G9P+MJ", :rating=>4.7, :user_ratings_total=>45, :types=>"[\"cafe\", \"food\", \"point_of_interest\", \"establishment\"]"}]