[{:id=>1, :infoid=>"58f74a85-c25f-4099-a3b3-0a02074a6d71", :name=>"覺旅咖啡 Journey Kaffe 南京復興店", :city=>"changhua", :wifi=>"5", :seat=>"5", :quiet=>"5", :tasty=>"5", :cheap=>"4", :music=>"4", :url=>"https://www.facebook.com/tripcafetw/", :address=>"彰化市彰化市民權路241號", :latitude=>"24.07687490", :longitude=>"120.53726800", :limited_time=>"", :socket=>"", :standing_desk=>"", :mrt=>"", :open_time=>"", :info_id=>1, :place_id=>"ChIJB0PpcUKrQjQRuJ-11m16YlU", :formatted_address=>"105台灣台北市松山區南京東路三段303巷8弄7號1樓", :business_status=>"OPERATIONAL", :location_lat=>"25.0530515", :location_lng=>"121.5471364", :viewport_ne_lat=>"25.05431512989272", :viewport_ne_lng=>"121.5484851298927", :viewport_sw_lat=>"25.05161547010728", :viewport_sw_lng=>"121.5457854701072", :compound_code=>"3G3W+6V 松山區 台北市", :global_code=>"7QQ33G3W+6V", :rating=>4.0, :user_ratings_total=>489, :types=>"[\"cafe\", \"store\", \"restaurant\", \"point_of_interest\", \"food\", \"establishment\"]"}, {:id=>2, :infoid=>"3052164d-3999-4426-97ea-edcc5f27a597", :name=>"All In Coffee （安靜空間，同組只接待2位入座）", :city=>"changhua", :wifi=>"5", :seat=>"4", :quiet=>"4", :tasty=>"4.5", :cheap=>"4", :music=>"3.5", :url=>"https://www.facebook.com/AllInCoffee.tw/", :address=>"510彰化縣員林市和平東街60-1號", :latitude=>"23.95408090", :longitude=>"120.57798490", :limited_time=>"no", :socket=>"maybe", :standing_desk=>"", :mrt=>"", :open_time=>"", :info_id=>2, :place_id=>"ChIJ6w75-_Y2aTQRaLXRVH8OSBk", :formatted_address=>"510台灣彰化縣員林市和平東街60-1號", :business_status=>"OPERATIONAL", :location_lat=>"23.962603", :location_lng=>"120.575596", :viewport_ne_lat=>"23.96378577989272", :viewport_ne_lng=>"120.5769817298927", :viewport_sw_lat=>"23.96108612010728", :viewport_sw_lng=>"120.5742820701073", :compound_code=>"XH7G+26 員林市 彰化縣", :global_code=>"7QM2XH7G+26", :rating=>4.4, :user_ratings_total=>543, :types=>"[\"cafe\", \"store\", \"food\", \"point_of_interest\", \"establishment\"]"}]